Kommun-KOD,Utegym-ID,Namn,Namn på plats,Koordinat_Lat_(WGS84),Koordinat_Long_(WGS84),Koordinat_Lat_(Sweref-99-TM),Koordinat_Long_(Sweref-99-TM),Koordinat_Lat_(Sweref-lokal),Koordinat_Long_(Sweref-lokal),Parkeringsplatser,Namn på ägare,Telefonnummer,E-post,Bild,Bild 2,Bild 3,Vägbeskrivning,Övrig beskrivning,Länk för mer information,Belysning,Rullstolsanpassat,Postnummer,Datum skapad,Datum modifierad,Sit ups,Armhäv,Rygglyft,Parallella stångar,Armgång,Balansbom,Marklyft,Trappsteg,Horisontell stång,Ribbstolar,Viktade rep,Benlyft,Slackline,Air walker,Rodd,Träningscykel,Skylt med övningsinstruktioner,Romerska ringar,Elliptisk träningsmaskin,Bänkpress,Knäböj,Axelpress,Häckar,Långbarr,Styrkeyta
0123,0123_Utegym_00001,Björkeby,Björkebyskolan,59.398195 ,17.85039,,,,,,,,,,,,,,,,,,,,,,,,,,,,,,,,,,,,,,,,,,,,
0123,0123_Utegym_00002,Veddestaspåret,Veddesta,59.402064,17.841599,,,,,,,,,,,,,,,,,,,,,,,,,,,,,,,,,,,,,,,,,,,,
0123,0123_Utegym_00003,Sandvik,Sandvik,59.40835,17.775354,,,,,,,,,,,,,,,,,,,,,,,,,,,,,,,,,,,,,,,,,,,,
0123,0123_Utegym_00004,Falstebol,Falstebolskolan,59.412608,17.808896,,,,,,,,,,,,,,,,,,,,,,,,,,,,,,,,,,,,,,,,,,,,
0123,0123_Utegym_00005,Ålsta,Ålsta,59.418786,17.865815,,,,,,,,,,,,,,,,,,,,,,,,,,,,,,,,,,,,,,,,,,,,
0123,0123_Utegym_00006,Tallbohov,Tallbohov IP,59.419243,17.85013,,,,,,,,,,,,,,,,,,,,,,,,,,,,,,,,,,,,,,,,,,,,
0123,0123_Utegym_00007,Nibble,Nibbleparken,59.426227,17.836778,,,,,,,,,,,,,,,,,,,,,,,,,,,,,,,,,,,,,,,,,,,,
0123,0123_Utegym_00008,Kallhällsspåret,Kallhäll,59.449245,17.797131,,,,,,,,,,,,,,,,,,,,,,,,,,,,,,,,,,,,,,,,,,,,
0123,0123_Utegym_00009,Källtorp,Källtorp,59.454835,17.810907,,,,,,,,,,,,,,,,,,,,,,,,,,,,,,,,,,,,,,,,,,,,
0123,0123_Utegym_00010,Turbingränd,Turbingränd,59.461753 ,17.799745,,,,,,,,,,,,,,,,,,,,,,,,,,,,,,,,,,,,,,,,,,,,
0123,0123_Utegym_00011,Ängsjö,Ängsjö friluftsområde,59.504203,17.814515,,,,,,,,,,,,,,,,,,,,,,,,,,,,,,,,,,,,,,,,,,,,
0117,0117_Utegym_00001,Domarudden Åkersberga,Domarudden,59.518472,18.341694,6602539,689042,,,Ja,Österåkers kommun,+46 8-54081000,servicecenter@osteraker.se,http://www.osteraker.se/upplevagora/idrottmotionochfriluftsliv/idrottsanlaggningar/utegym.4.2a9bbe92160d7ec5088ebf4.html,,,"Intill utomhusparkeringen vid Domarudden finner du gymmet.
Träningsmaskinerna är av metalltyp.",,,,,,,,,,,,,,,,,,,,,,,,,,,,,,,,
0117,0117_Utegym_00002,Kottvägens Lekplats Åkersberga,Kottvägens Lekplats Åkersberga,59.496328,18.286823,6599921,686061,,,Nej,Österåkers kommun,+46 8-54081000,servicecenter@osteraker.se,http://www.osteraker.se/upplevagora/idrottmotionochfriluftsliv/idrottsanlaggningar/utegym.4.2a9bbe92160d7ec5088ebf4.html,,,Ligger på parkmark vid Kottvägens lekplats- och radhusområde.Träningsmaskinerna är av metalltyp.,,,,,,,,,,,,,,,,,,,,,,,,,,,,,,,,
0117,0117_Utegym_00003,Lillbroängens park,Strömfallsvägen 13 Åkersberga,59.485797,18.287878,6598752,686179,,,Nej,Österåkers kommun,+46 8-54081000,servicecenter@osteraker.se,http://www.osteraker.se/upplevagora/idrottmotionochfriluftsliv/idrottsanlaggningar/utegym.4.2a9bbe92160d7ec5088ebf4.html,,,Gymmet och aktivitetsparken ligger vid Åkers kanal några steg norr om Lillbron vid Hackstavägen. Träningsmaskinerna är av metalltyp.,,,,,,,,,,,,,,,,,,,,,,,,,,,,,,,,
0117,0117_Utegym_00004,Oceanparken,Västra Banvägen / Orionvägen,59.474043,18.306384,6597496,687292,,,Nej,Österåkers kommun,+46 8-54081000,servicecenter@osteraker.se,http://www.osteraker.se/upplevagora/idrottmotionochfriluftsliv/idrottsanlaggningar/utegym.4.2a9bbe92160d7ec5088ebf4.html,,,"Oceanparken hittar du mellan Västra Banvägen och Orionvägen.
Träningsmaskinerna är av metalltyp.",,,,,,,,,,,,,,,,,,,,,,,,,,,,,,,,
0117,0117_Utegym_00005,Hacksta friluftsområde Åkersberga,Hackstavägen 43 Åkersberga,59.489029,18.304048,6599157,687076,,,Ja,Österåkers kommun,+46 8-54081000,servicecenter@osteraker.se,http://www.osteraker.se/upplevagora/idrottmotionochfriluftsliv/idrottsanlaggningar/utegym.4.2a9bbe92160d7ec5088ebf4.html,,,Hackstaspårets utegym som ligger precis bakom ishallen och är ett favoritställe. Nu har gymmet upprustats. Redskapen är gjorda av stockar och trämaterial som passar väl i friluftsområdet. Gymmet har också fått ny belysning.,,,Ja,,,,,Ja,Ja,Ja,,Ja,,Ja,,,,,,,,,,,,,Ja,,,,,
0117,0117_Utegym_00006,Sabelbackens aktivitetspark,Margretelund Åkersberga,59.469552,18.342550,6597099,689364,,,Nej,Österåkers kommun,+46 8-54081000,servicecenter@osteraker.se,http://www.osteraker.se/upplevagora/idrottmotionochfriluftsliv/idrottsanlaggningar/utegym.4.2a9bbe92160d7ec5088ebf4.html,,,Du hittar utegymmet bredvid Sabelbackens aktivitetspark mellan Norrabacken och Sabelbacken i Margretelund. Träningsmaskinerna är av trätyp.,,,,,,,,Ja,Ja,Ja,,Ja,,Ja,,,,,,,,,,,,,Ja,,,,,
0117,0117_Utegym_00007,Röllingbyparken Åkersberga,Hantverksvägen Åkersberga,59.490603,18.292652,6599300,686423,,,Nej,Österåkers kommun,+46 8-54081000,servicecenter@osteraker.se,http://www.osteraker.se/upplevagora/idrottmotionochfriluftsliv/idrottsanlaggningar/utegym.4.2a9bbe92160d7ec5088ebf4.html,,,"En aktivitetspark för alla och med fokus på de unga i centrala Åkersberga. Här i Röllingbyparken blir det bland annat plats för padelbana, skatebana, basket, klättring, utegym och scen. Röllingbyparken hittar du mellan Hantverksvägen och Röllingbyvägen och står färdig sommaren 2019.",,,,,,,,Ja,Ja,Ja,,Ja,,Ja,,,,,,,,,,,,,Ja,,,,,
0114,0114_Utegym_00001,Utegym Vilundaparken,Vilundaparken,59.516378,17.920648,6601184,665244,,,Ja,Upplands Väsby kommun,+46 8 590 970 00,vasbydirekt@upplandsvasby.se,http://www.upplandsvasby.se/uppleva-och-gora/idrott-motion-och-friluftsliv/friluftsliv-och-motion/utegym.html,,,,,http://www.upplandsvasby.se/uppleva-och-gora/idrott-motion-och-friluftsliv/friluftsliv-och-motion/utegym.html,,,,,,,,,,,,,,,,,,,,,,,,,,,,,,
0114,0114_Utegym_00002,Utegym Runbyspåret,Runbyspåret,59.521516,17.872884,6601638,662518,,,Ja,Upplands Väsby kommun,+46 8 590 970 00,vasbydirekt@upplandsvasby.se,http://www.upplandsvasby.se/uppleva-och-gora/idrott-motion-och-friluftsliv/friluftsliv-och-motion/utegym.html,,,,,http://www.upplandsvasby.se/uppleva-och-gora/idrott-motion-och-friluftsliv/friluftsliv-och-motion/utegym.html,,,,,,,,,,,,,,,,,,,,,,,,,,,,,,
0114,0114_Utegym_00003,Utegym Sandaspåret,Sandaspåret,59.509911,17.941356,6600516,666447,,,Ja,Upplands Väsby kommun,+46 8 590 970 00,vasbydirekt@upplandsvasby.se,http://www.upplandsvasby.se/uppleva-och-gora/idrott-motion-och-friluftsliv/friluftsliv-och-motion/utegym.html,,,,,http://www.upplandsvasby.se/uppleva-och-gora/idrott-motion-och-friluftsliv/friluftsliv-och-motion/utegym.html,,,,,,,,,,,,,,,,,,,,,,,,,,,,,,
0114,0114_Utegym_00004,Utegym Smedsgärdsspåret,Smedsgärdsspåret,59.521372,17.923167,6601746,665362,,,Ja,Upplands Väsby kommun,+46 8 590 970 00,vasbydirekt@upplandsvasby.se,http://www.upplandsvasby.se/uppleva-och-gora/idrott-motion-och-friluftsliv/friluftsliv-och-motion/utegym.html,,,,,http://www.upplandsvasby.se/uppleva-och-gora/idrott-motion-och-friluftsliv/friluftsliv-och-motion/utegym.html,,,,,,,,,,,,,,,,,,,,,,,,,,,,,,
0114,0114_Utegym_00005,Utegym Smedbyspåret,Ryttargatan 270,59.508162,17.910303,6600244,664699,,,Ja,Upplands Väsby kommun,+46 8 590 970 00,vasbydirekt@upplandsvasby.se,http://www.upplandsvasby.se/uppleva-och-gora/idrott-motion-och-friluftsliv/friluftsliv-och-motion/utegym.html,,,,,http://www.upplandsvasby.se/uppleva-och-gora/idrott-motion-och-friluftsliv/friluftsliv-och-motion/utegym.html,,,,,,,,,,,,,,,,,,,,,,,,,,,,,,
0114,0114_Utegym_00006,Utegym Östra Frestaby,Fresta,59.518651,17.962206,6601541,667583,,,Ja,Upplands Väsby kommun,+46 8 590 970 00,vasbydirekt@upplandsvasby.se,http://www.upplandsvasby.se/uppleva-och-gora/idrott-motion-och-friluftsliv/friluftsliv-och-motion/utegym.html,,,,,http://www.upplandsvasby.se/uppleva-och-gora/idrott-motion-och-friluftsliv/friluftsliv-och-motion/utegym.html,,,,,,,,,,,,,,,,,,,,,,,,,,,,,,
0187,0187_Utegym_00001,Vaxholms stads utomhusgym,Eriksö,59.406650,18.307548,6590000,687732,6588009,167469,Ja,Vaxholms stad,+46 8 541 708 00,kansliet@vaxholm.se,https://www.vaxholm.se/images/18.1467b68c157c4db76bc7e8a0/1477579795272/Utomhusgym%20Eriks%C3%B6_nyhet.jpg,,,"Gymmet ligger längs elljusspåret på Eriksö bredvid den lilla ängen. Det går att gå via campingområdet, alternativt ta höger där elljusspåret börjar och följa spåret cirka 500 meter",,https://www.vaxholm.se/externwebb-startsida/uppleva-och-gora/idrott-motion-och-friluftsliv/friluftsliv-och-motion/utomhusgym.html,Ja,Begränsat,18537,2016-11-01,,Ja,Ja,Ja,Nej,Ja,Nej,Ja,Ja,,Nej,Nej,Ja,Nej,Nej,Nej,Nej,Ja,Nej,Nej,Ja,Ja,Ja,Nej,Nej,Ja
180,0180_Utegym_00001,Akalla Gårds utegym,Akalla Gårds bollplan,59.412051,17.915596,,,,,Nej,"Idrottsförvaltningen, Stockholms stad",+46 850 827 700,friluft.idrott@​stockholm.se,https://motionera.stockholm/optimized/serviceunitspage/filer/hitta/dc5ebb87-73cc-496c-88ab-3f2fb58e6076.jpeg,,,T-bana blå linje till Akalla. Promenad 350 meter,,https://motionera.stockholm/hitta-utegym/utegym/akalla-gards-utegym/,Ja,,,,,Ja,,,,Ja,,Ja,,,,,,,,Ja,,,,,Ja,Ja,Ja,,,
180,0180_Utegym_00002,Björkhagens utegym,Startplatsen för Björkhagsspåret,59.293862,18.126439,,,,,Nej,"Idrottsförvaltningen, Stockholms stad",+46 850 827 700,friluft.idrott@​stockholm.se,https://motionera.stockholm/optimized/serviceunitspage/filer/hitta/620e2190-2758-4c70-ba39-ac9cf2dddb60.jpeg,,,"Tunnelbana grön linje till Björkhagen, promenad cirka 700 meter",,https://motionera.stockholm/hitta-utegym/utegym/bjorkhagens-utegym/,Ja,,,,,Ja,,,,Ja,,Ja,,,,,,,,Ja,,,,,Ja,Ja,Ja,,,
180,0180_Utegym_00003,Bredängs utegym,Intill Bredängs camping,59.295756,17.923198,,,,,Ja,"Skärholmens stadsdelsförvaltning, Stockholms stad",+46 850 824 000,skarholmen@stockholm.se,,,,Närmaste tunnelbana är Bredäng och om du följer skyltningen för Bredängs camping hittar du utegymmet strax efter campingens parkering och bredvid skogen,,https://motionera.stockholm/hitta-utegym/utegym/bredangs-utegym/,,,,,,,,,,,,,,,,,,,,,,,,,,,,,,
180,0180_Utegym_00004,Brotorp utegym,Brotorp,59.272175,18.148631,,,,,Nej,"Idrottsförvaltningen, Stockholms stad",+46 850 827 700,friluft.idrott@​stockholm.se,,,,,,https://motionera.stockholm/hitta-utegym/utegym/brotorp-utegym/,Ja,,,,,Ja,,,,Ja,,Ja,,,,,,,,Ja,,,,,Ja,Ja,Ja,,,
180,0180_Utegym_00005,Eriksdals utegym,Intill Eriksdalsbadet,59.304698,18.074382,,,,,Nej,"Idrottsförvaltningen, Stockholms stad",+46 850 827 700,friluft.idrott@​stockholm.se,https://motionera.stockholm/optimized/serviceunitspage/filer/hitta/19f243f7-7a3c-4ba4-acf1-176bed89f93c.jpeg,,,,,https://motionera.stockholm/hitta-utegym/utegym/eriksdals-utegym/,Nej,,,,,Ja,,,,Ja,,Ja,,,,,,,,Ja,,,,,Ja,Ja,Ja,,,
180,0180_Utegym_00006,Fagersjöskogens utegym,Intill Fagersjöspåret,59.251094,18.077149,,,,,Ja,"Farsta stadsdelsförvaltning, Stockholms stad",+46 850 818 000,farsta@​stockholm.se,,,,,,https://motionera.stockholm/hitta-utegym/utegym/fagersjoskogens-utegym/,,,,,,Ja,,,,Ja,,Ja,,,,,,,,,,,,,,Ja,,,,
180,0180_Utegym_00007,Farsta utegym,Utanför grindarna till Farsta idrottsplats,59.239770,18.079996,,,,,Ja,"Idrottsförvaltningen, Stockholms stad",+46 850 827 700,friluft.idrott@​stockholm.se,https://motionera.stockholm/optimized/serviceunitspage/filer/hitta/34dc2d28-19d7-4a51-89e1-c305611567e8.jpeg,,,,,https://motionera.stockholm/hitta-utegym/utegym/farsta-utegym/,Ja,,,,,Ja,,,,Ja,,Ja,,,,,,,,Ja,,,,,Ja,Ja,Ja,,,
180,0180_Utegym_00008,Farstanäsets utegym,Farstanäset,59.239064,18.070715,,,,,Nej,"Farsta stadsdelsförvaltning, Stockholms stad",+46 850 818 000,farsta@​stockholm.se,,,,,,https://motionera.stockholm/hitta-utegym/utegym/farstanasets-utegym/,,,,,,,,,,,,,,,,,,,,,,,,,,,,,,
180,0180_Utegym_00009,Farstastrandsbadets utegym,Farstastrandsbadet,59.237470,18.085333,,,,,Nej,"Farsta stadsdelsförvaltning, Stockholms stad",+46 850 818 000,farsta@​stockholm.se,https://motionera.stockholm/optimized/serviceunitspage/filer/hitta/d754bd51-a7b0-49b8-8a9d-eee6794534ba.jpeg,,,,,https://motionera.stockholm/optimized/serviceunitspage/filer/hitta/d754bd51-a7b0-49b8-8a9d-eee6794534ba.jpeg,,,,,,,,,,,,,,,,,,,,,,,,,,,,,,
180,0180_Utegym_00010,Flatenbadet utegym,Flatenbadet,59.253683,18.161676,,,,,Ja,"Idrottsförvaltningen, Stockholms stad",+46 850 827 700,friluft.idrott@​stockholm.se,,,,,,https://motionera.stockholm/hitta-utegym/utegym/flatenbadet-utegym/,,,,,,,,,,,,,,,,,,,,,,,,,,,,,,
180,0180_Utegym_00011,Fruängens utegym,Vid Fruängens bollplan,59.283127,17.962843,,,,,Ja,"Hägersten-Liljeholmens stadsdelsförvaltning, Stockholms stad",+46 850 822 700,hagersten-liljeholmen@stockholm.se,https://motionera.stockholm/optimized/serviceunitspage/filer/hitta/ca16db47-a775-49ec-a529-52d9b2379e1b.jpeg,,,,,https://motionera.stockholm/hitta-utegym/utegym/fruangens-utegym/,Nej,,,,,,,,,,,,,,,,,,,,,,,,,,,,,
180,0180_Utegym_00012,Grimsta utegym,Grimsta gärde,59.357766,17.865457,,,,,Nej,"Hässelby-Vällingby stadsdelsförvaltning, Stockholms stad",+46 850 804 000,hasselby-vallingby@stockholm.se,https://motionera.stockholm/optimized/serviceunitspage/filer/hitta/e392ea90-db5c-4c60-b91c-89d53665063e.jpeg,,,"Utegymmet är placerat nära krematoriet i Grimsta. Intill finns en bollplan med grusmark, i närheten ligger Grimsta motionsspår och Kanaans strandbad ligger en promenadväg bort på andra sidan Grimsta naturreservat.",,https://motionera.stockholm/hitta-utegym/utegym/grimsta-utegym/,Nej,,,,,Ja,,,,Ja,,Ja,,,,,,,,Ja,,,,,Ja,Ja,Ja,,,
180,0180_Utegym_00013,Grimstafältet - Grimsta motionsspår,Grimstafältet,59.361643,17.846410,,,,,Nej,"Hässelby-Vällingby stadsdelsförvaltning, Stockholms stad",+46 850 804 000,hasselby-vallingby@stockholm.se,https://motionera.stockholm/optimized/serviceunitspage/filer/hitta/a99ea55c-0027-46ff-8b1e-db08655623ed.jpeg,,,Vid startpunkten av Grimsta motionsspår vid Grimstafältet,,https://motionera.stockholm/hitta-utegym/utegym/grimstafaltet-grimsta-mostionsspar/#hitta-till-oss,Nej,,,,,Ja,,,,,,Ja,,,,,,,,,,,,,,,,,,
180,0180_Utegym_00014,Gärdets utegym,Gärdet,59.342101,18.108704,,,,,Ja,"Idrottsförvaltningen, Stockholms stad",+46 850 827 700,friluft.idrott@​stockholm.se,https://motionera.stockholm/optimized/serviceunitspage/filer/hitta/61d5afc7-a2e1-46fa-821a-9a0177290b3f.jpeg,,,Precis utanför Kampementsbadet,,https://motionera.stockholm/hitta-utegym/utegym/gardets-utegym/,Ja,,,,,Ja,,,,Ja,,Ja,,,,,,,,Ja,,,,,Ja,Ja,Ja,,,
180,0180_Utegym_00015,Hammarby Sjöstads utegym,Hammarby Sjöstad,59.301567,18.111090,,,,,Ja,"Idrottsförvaltningen, Stockholms stad",+46 850 827 700,friluft.idrott@​stockholm.se,,,,,,https://motionera.stockholm/hitta-utegym/utegym/hammarby-sjostads-utegym/,,,,,,,,,,,,,,,,,,,,,,,,,,,,,,
180,0180_Utegym_00016,Hellasgårdens utegym,Hellasgården,59.289772,18.158952,,,,,Ja,"Idrottsförvaltningen, Stockholms stad",+46 850 827 700,friluft.idrott@​stockholm.se,https://motionera.stockholm/optimized/serviceunitspage/filer/hitta/4a5d7a82-30e5-42e5-bf27-db09e5b0b70a.jpeg,,,"Utegymmet ligger precis vid ett av motionsspåren och endast några friska steg från Hellasgården med dess minigolfbana, restaurang, bad & bastu",,https://motionera.stockholm/hitta-utegym/utegym/hellasgardens-utegym/,Ja,,,,,Ja,,,,Ja,,Ja,,,,,,,,Ja,,,,,Ja,Ja,Ja,,,
180,0180_Utegym_00017,Hinderstorpsparkens utegym,Hinderstorpsparken,59.388563,17.935286,,,,,Nej,"Idrottsförvaltningen, Stockholms stad",+46 850 827 700,friluft.idrott@​stockholm.se,https://motionera.stockholm/optimized/serviceunitspage/filer/hitta/c9907bc3-4ffc-4983-9a43-00bbee020cb0.jpeg,,,Nära Rinkebys nordöstra entré mot Järvafältet,,https://motionera.stockholm/hitta-utegym/utegym/hinderstorpsparkens-utegym/,Ja,,,,,Ja,,Ja,,Ja,,,,,,,Ja,,,Ja,,,,,Ja,Ja,Ja,,,
180,0180_Utegym_00018,Hjorthagens utegym,Hjorthagen,59.357636,18.098828,,,,,Nej,Östermalms stadsdelsförvaltning; Stockholms stad,+46 850 810 000,ostermalm@​stockholm.se,https://motionera.stockholm/optimized/serviceunitspage/filer/hitta/f9cef578-b0cd-413d-8e1e-2c4f94a4b333.jpeg,,,Nedanför Dianavägen 30,,https://motionera.stockholm/hitta-utegym/utegym/hjorthagens-utegym/,Ja,,,,,Ja,,,,Ja,,,,,,,,,,,,,,,Ja,Ja,Ja,,,
180,0180_Utegym_00019,Hornsbergs strands utegym,Hornsbergs strand,59.340650,18.010499,,,,,Nej,"Kungsholmens stadsdelsförvaltning, Stockholms stad",+46 850 808 000,kungsholmen@stockholm.se,https://motionera.stockholm/optimized/serviceunitspage/filer/hitta/7dbb5927-03d8-47e2-bb11-80d3f6262a65.jpeg,,,Närmaste tunnelbanestation är Stadshagen. Alternativt ta buss 61 och stig av hållplats Moa Martinssons torg,,https://motionera.stockholm/hitta-utegym/utegym/hornsbergs-strands-utegym/,Ja,,,,,,,,,,,,,,,,,,,,,,,,,,,,,
180,0180_Utegym_00020,Hökarängsbadets utegym,Hökarängsbadet,59.246837,18.109381,,,,,Ja,"Farsta stadsdelsförvaltning, Stockholms stad",+46 850 818 000,farsta@​stockholm.se,,,,,,https://motionera.stockholm/hitta-utegym/utegym/hokarangsbadets-utegym/,,,,,,,,,,,,,,,,,,,,,,,,,,,,,,
180,0180_Utegym_00021,Kaknäs utegym,Kaknäs motionsspår,59.336134,18.136206,,,,,Nej,"Idrottsförvaltningen, Stockholms stad",+46 850 827 700,friluft.idrott@​stockholm.se,https://motionera.stockholm/optimized/serviceunitspage/filer/hitta/90c353cc-e4e1-4c2b-8968-9b7986d1b90a.jpeg,,,Utegymmet ligger i anslutning till motionsspåret i Kaknäs vid Sjöfartsverkets fritidsanläggning,,https://motionera.stockholm/hitta-utegym/utegym/kaknas-utegym/,Ja,,,,,,,,,,,,,,,,,,,,,,,,,,,,,
180,0180_Utegym_00022,Kanaanbadets utegym,Kanaanbadet,59.348849,17.859301,,,,,Nej,"Hässelby-Vällingby stadsdelsförvaltning, Stockholms stad",+46 850 804 000,hasselby-vallingby@stockholm.se,https://motionera.stockholm/optimized/serviceunitspage/filer/hitta/b04b2a30-e86e-4d76-b7fe-144e07c256c8.jpeg,,,Vid kanotklubbens lokaler vid första entrén till Kanaanbadet,,https://motionera.stockholm/hitta-utegym/utegym/kanaanbadets-utegym/,,,,,,Ja,,,,,,,,,,,,,,,,,,,,,,,,
180,0180_Utegym_00023,Kronobergsparkens utegym,Kronobergsparken,59.332426,18.036282,,,,,Nej,"Kungsholmens stadsdelsförvaltning, Stockholms stad",+46 850 808 000,kungsholmen@stockholm.se,https://motionera.stockholm/optimized/serviceunitspage/filer/hitta/0ef7e8ed-0d47-4850-9afb-92bd0b956b12.jpeg,,,"Gymmet ligger uppe i parken, nära en hundrastgård och en basketplan.Närmaste tunnelbanestation är Fridhemsplan eller Rådhuset",,https://motionera.stockholm/hitta-utegym/utegym/kronobergsparkens-utegym/,,,,,,,,,,,,,,,,,,,,,,,,,,,,,,
180,0180_Utegym_00024,Kungsholms strandstigs utegym,Kungsholms strandstig,59.333843,18.047520,,,,,Nej,"Kungsholmens stadsdelsförvaltning, Stockholms stad",+46 850 808 000,kungsholmen@stockholm.se,https://motionera.stockholm/optimized/serviceunitspage/filer/hitta/241eb65d-15ad-4e5b-92e7-f757e736d830.jpeg,,,"Pipersgatan 45. Buss 1 går till Kungsbroplan. Gymmet ligger vid stranden, bakom Tekniska nämndhuset",,https://motionera.stockholm/hitta-utegym/utegym/kungsholms-strandstigs-utegym/,,,,,,,,,,,,,,,,,,,,,,,,,,,,,,
180,0180_Utegym_00025,Kämpetorpsskolans utegym,Kämpetorpsskolan,59.283720,17.996853,,,,,Ja,"Kämpetorpshallarn, Stockholms stad",+46 850 890 208,pekka.haapanen@stockholm.se,https://motionera.stockholm/optimized/serviceunitspage/filer/hitta/4f92adac-4209-4cf6-b1bf-0e1b0b6e08a6.jpeg,,,Lerkrogsvägen 28. Invid Kämpetorpsskolan och Kämpetorpshallarna,,https://motionera.stockholm/hitta-utegym/utegym/kampetorpsskolans-utegym/,,,,,,,,,,,,,,,,,,,,,,,,,,,,,,
180,0180_Utegym_00026,Kärrtorps utegym,Kärrtorp,59.285587,18.125069,,,,,Ja,"Idrottsförvaltningen, Stockholms stad",+46 850 827 700,friluft.idrott@​stockholm.se,https://motionera.stockholm/optimized/serviceunitspage/filer/hitta/b6965fac-23ce-44c5-a9b6-831b691c08a5.jpeg,,,Mellan isrinken och motionsspåret,,https://motionera.stockholm/hitta-utegym/utegym/karrtorps-utegym/,,,,,,Ja,,,,Ja,,Ja,,,,,,,,Ja,,,,,Ja,Ja,Ja,,,
180,0180_Utegym_00027,Lappkärrsbergets utegym,"Docentbacken, Lappkärrsberget",59.371623,18.058726,,,,,Nej,Östermalms stadsdelsförvaltning; Stockholms stad,+46 850 810 000,ostermalm@​stockholm.se,https://motionera.stockholm/optimized/serviceunitspage/filer/hitta/30b6ce02-45be-4ce9-a90b-1a07877e39d1.jpeg,,,Buss 50 går till Professorsslingan på Lappkärrsberget,,https://motionera.stockholm/hitta-utegym/utegym/lappkarrsbergets-utegym/,,,,,,,,,Ja,,Ja,,Ja,,Ja,,,,,,,,,,,,,,,
180,0180_Utegym_00028,Liljeholmens utegym,Trekantsparken,59.310647,18.020778,,,,,Ja,"Hägersten-Liljeholmens stadsdelsförvaltning, Stockholms stad",+46 850 822 700,hagersten-liljeholmen@stockholm.se,https://motionera.stockholm/optimized/serviceunitspage/filer/hitta/6284056e-82c2-4d83-b673-7f0d9a4e26c8.jpeg,,,"i Trekantsparken, nära Liljeholmstorget och sjön Trekanten. Utegymmet ligger nära Liljeholmens tunnelbana och Liljeholmstorgets galleria med butiker och restauranger",,https://motionera.stockholm/hitta-utegym/utegym/liljeholmens-utegym/,,,,,,,,,,,,,,,,,,,,,,,,,,,,,,
180,0180_Utegym_00029,Lillsjöns utegym,Lillsjön,59.342025,17.953515,,,,,Nej,"Stadsmiljö och parkfrågor i Bromma, Stockholms stad",+46 850 806 000,stadsmiljo.bromma@​stockholm.se,,,,"Vid Lillsjön, Kvarnbacksvägen. Tar cirka 15 min att gå till utegymmet från Abrahamsbergs tunnelbanestation",,https://motionera.stockholm/hitta-utegym/utegym/lillsjons-utegym/,,,,,,,,,,,,,,,,,,,,,,,,,,,,,,
180,0180_Utegym_00030,Mellanbergsparkens utegym,Mellanbergsparken,59.291356,17.981224,,,,,Nej,"Hägersten-Liljeholmens stadsdelsförvaltning, Stockholms stad",+46 850 822 700,hagersten-liljeholmen@stockholm.se,,,,"Personnevägen 103, Hägersten. I närheten ligger Hägerstensbadets utomhusbassäng och Västertorps sim- och idrottshall",,https://motionera.stockholm/hitta-utegym/utegym/mellanbergsparkens-utegym/,,,,,,,,,,,,,,,,,,,,,,,,,,,,,,
180,0180_Utegym_00031,Mossens utegym,Stora Mossens idrottsplats,59.328957,17.963759,,,,,Ja,"Idrottsförvaltningen, Stockholms stad",+46 850 827 700,friluft.idrott@​stockholm.se,https://motionera.stockholm/optimized/serviceunitspage/filer/hitta/17fa4fdb-23ec-4229-bd1c-a5cfb2ba5ea3.jpeg,,,Utegymmet ligger i anknytning till Stora Mossens idrottsplats. T-bana till Stora Mossen. Promenad 700 meter,,https://motionera.stockholm/hitta-utegym/utegym/mossens-utegym/,,,,,,Ja,,,Ja,Ja,Ja,Ja,,,,,,,,Ja,,,,,Ja,Ja,Ja,,,
180,0180_Utegym_00032,Mälarhöjdsbadets utegym,Mälarhöjdsbadet,59.300068,17.925742,,,,,Nej,"Skärholmens stadsdelsförvaltning, Stockholms stad",+46 850 824 000,skarholmen@stockholm.se,,,,,,https://motionera.stockholm/hitta-utegym/utegym/malarhojdsbadets-utegym/,,,,,,Ja,,,Ja,Ja,Ja,Ja,,,,,,,,Ja,,,,,Ja,Ja,Ja,,,
180,0180_Utegym_00033,Nytorpsgärdes utegym,Nytorpsbadet,59.289608,18.106392,,,,,Nej,Skarpnäcks stadsdelsförvaltning,+46 850 815 000,skarpnack@stockholm.se,,,,Bredvid Nytorpsbadet mellan Björkhagen och Kärrtorp,,https://motionera.stockholm/hitta-utegym/utegym/nytorpsgardes-utegym/,,,,,,Ja,,,Ja,,Ja,,,,,,,,,,,,,,Ja,Ja,,,,
180,0180_Utegym_00034,Nälsta utegym,Nälsta,59.369468,17.880200,,,,,Nej,"Hässelby-Vällingby stadsdelsförvaltning, Stockholms stad",+46 850 804 000,hasselby-vallingby@stockholm.se,https://motionera.stockholm/optimized/serviceunitspage/filer/hitta/e4faf546-9b34-41b8-9403-9a61ac07ae1a.jpeg,,,,,https://motionera.stockholm/hitta-utegym/utegym/nalsta-utegym/,,,,,,Ja,,,Ja,Ja,Ja,Ja,,,,,,,,Ja,,,,,Ja,Ja,Ja,,,
180,0180_Utegym_00035,Oppundaparkens utegym,Oppundaparken,59.271542,18.072920,,,,,Nej,"Farsta stadsdelsförvaltning, Stockholms stad",+46 850 818 000,farsta@​stockholm.se,,,,,,https://motionera.stockholm/hitta-utegym/utegym/oppundaparkens-utegym/,,,,,,,,,,,,,,,,,,,,,,,,,,,,,,
180,0180_Utegym_00036,Oxtungans utegym,Oxtungans lekplats,59.370147,17.818056,,,,,Nej,"Hässelby-Vällingby stadsdelsförvaltning, Stockholms stad",+46 850 804 000,hasselby-vallingby@stockholm.se,https://motionera.stockholm/optimized/serviceunitspage/filer/hitta/894a6c70-3672-4c3b-ad9c-59ca383acdfa.jpeg,,,Utegymmet finns i anslutning till Oxtungans lekplats,,https://motionera.stockholm/hitta-utegym/utegym/oxtungans-utegym/,,,,,,Ja,,,Ja,Ja,Ja,Ja,,,,,,,,Ja,,,,,Ja,Ja,Ja,,,
180,0180_Utegym_00037,Pålsundsparkens utegym,Pålslundaparken,59.318823,18.027859,,,,,Nej,"Södermalms stadsdelsförvaltning, Stockholms stad",+46 850 812 000,soder@stockholm.se,,,,Utegymmet är beläget längs med den fina strandpromenaden,,https://motionera.stockholm/hitta-utegym/utegym/palsundsparkens-utegym/,,,,,,,,,,,,,,,,,,,,,,,,,,,,,,
180,0180_Utegym_00038,Rålambshovsparkens utegym,Rålambshovsparken,59.329186,18.025254,,,,,Nej,"Kungsholmens stadsdelsförvaltning, Stockholms stad",+46 850 808 000,kungsholmen@stockholm.se,https://motionera.stockholm/optimized/serviceunitspage/filer/hitta/221c54f3-4d2f-4f57-be16-cd40a92564d1.jpeg,,,Närmaste tunnelbanestation är Fridhemsplan. Gymmet ligger i Rålambshovsparken mot Rålambshovsleden,,https://motionera.stockholm/hitta-utegym/utegym/ralambshovsparkens-utegym/,,,,,,,,,,,,,,,,,,,,,,,,,,,,,,
180,0180_Utegym_00039,Sannadalsparkens utegym,Sannadalsparken,59.315561,18.011020,,,,,Nej,"Hägersten-Liljeholmens stadsdelsförvaltning, Stockholms stad",+46 850 822 700,hagersten-liljeholmen@stockholm.se,https://motionera.stockholm/optimized/serviceunitspage/filer/hitta/75666457-b35d-49fc-910a-245bfcdffdbd.jpeg,,,I närheten av lekplatsen i Sannadalsparken i Gröndal,,https://motionera.stockholm/hitta-utegym/utegym/sannadalsparkens-utegym/,,,,,,,,,,,,,,,,,,,,,,,,,,,,,,
180,0180_Utegym_00040,Skarpnäcksfältets utegym,Skarpnäcks sportfält,59.270133,18.119933,,,,,Ja,"Idrottsförvaltningen, Stockholms stad",+46 850 827 700,friluft.idrott@​stockholm.se,https://motionera.stockholm/optimized/serviceunitspage/filer/hitta/a1d93cb8-9bd9-4178-8e00-624ab6ba0124.jpeg,,,Utegymmet är beläget intill baseballplanen på Skarpnäcks sportfält,,https://motionera.stockholm/hitta-utegym/utegym/skarpnacksfaltets-utegym/,,,,,,Ja,,,Ja,Ja,Ja,Ja,,,,,,,,Ja,,,,,Ja,Ja,Ja,,,
180,0180_Utegym_00041,Skärholmens utegym,Skärholmens gård,59.283053,17.888933,,,,,Ja,"Skärholmens stadsdelsförvaltning, Stockholms stad",+46 850 824 000,skarholmen@stockholm.se,,,,Nära Skärholmens gård,,https://motionera.stockholm/hitta-utegym/utegym/skarholmens-utegym/,,,,,,,,,,,,,,,,,,,,,,,,,,,,,,
180,0180_Utegym_00042,Smedsuddsbadets utegym,Smedsuddsbadet,59.325638,18.021422,,,,,Nej,"Kungsholmens stadsdelsförvaltning, Stockholms stad",+46 850 808 000,kungsholmen@stockholm.se,,,,Buss 4 med flera går till Västerbroplan. Därifrån finns gångvägar ner till vattnet och badet där utegymmet ligger,,https://motionera.stockholm/hitta-utegym/utegym/smedsuddsbadets-utegym/,,,,,,,,,,,,,,,,,,,,,,,,,,,,,,
180,0180_Utegym_00043,Solbergskogens utegym,Solbergskogen,59.286729,18.004291,,,,,Nej,"Älvsjö stadsdelsförvaltning, Stockholms stad",+46 850 821 000,alvsjo@stockholm.se,https://motionera.stockholm/optimized/serviceunitspage/filer/hitta/69622f57-8300-4a31-a355-5f9c8c5d4a6e.jpeg,,,"Utegymmet ligger nära Sulvägen 22 i stadsdelen  Busshållplats Sulvägen trafikeras av linje 142, 300 meter promenad",,https://motionera.stockholm/hitta-utegym/utegym/solbergaskogens-utegym/,Ja,,,,,Ja,Ja,,Ja,,,Ja,,,,,,,,Ja,,,,,,Ja,Ja,,,
180,0180_Utegym_00044,Solbrännans utegym,Parken Solbrännan,59.281968,18.015535,,,,,Nej,"Älvsjö stadsdelsförvaltning, Stockholms stad",+46 850 821 000,alvsjo@stockholm.se,https://motionera.stockholm/optimized/serviceunitspage/filer/hitta/f99bff7a-d921-4bff-ac2b-e954f4b7bd94.jpeg,,,"Utegymmet ligger i parken Solbrännan vid hörnet Götalandsvägen-Folkparksvägen.Älvsjö station, cirka 500 m promenad",,https://motionera.stockholm/hitta-utegym/utegym/solbrannans-utegym/,Ja,,,,,Ja,Ja,,Ja,,,Ja,,,,,,,,Ja,,,,,,Ja,Ja,,,
180,0180_Utegym_00045,Solviks utegym,Solviksbadet,59.315803,17.964652,,,,,Ja,"Stadsmiljö och parkfrågor i Bromma, Stockholms stad",+46 850 806 000,stadsmiljo.bromma@​stockholm.se,,,,"Vid Solviksbadet, Ålstens skogsväg 24",,https://motionera.stockholm/hitta-utegym/utegym/solviks-utegym/,,,,,,,,,,,,,,,,,,,,,,,,,,,,,,
180,0180_Utegym_00046,Spånga idrottsplats,Spånga IP,59.387381,17.907621,,,,,Ja,"Idrottsförvaltningen, Stockholms stad",+46 850 827 700,friluft.idrott@​stockholm.se,https://motionera.stockholm/optimized/serviceunitspage/filer/hitta/7f23f970-9504-4468-9961-95086d2fcd1e.jpeg,,,Mellan fotbollshallen och löparbanorna på Spånga IP,,https://motionera.stockholm/hitta-utegym/utegym/spanga-idrottsplats-utegym/,,,,,,Ja,,,Ja,Ja,Ja,Ja,,,,,,,,Ja,,,,,Ja,Ja,Ja,,,
180,0180_Utegym_00047,Spånga utegym,Spånga centrum,59.382784,17.895450,,,,,Ja,"Spånga-Tensta stadsdelsförvaltning, Stockholms stad",+46 850 803 000,spanga-tensta@stockholm.se,,,,Bredvid en boulebana i närheten av Spånga centrum,,https://motionera.stockholm/hitta-utegym/utegym/spanga-utegym/,,,,,,,,,,,,,,,,,,,,,,,,,,,,,,
180,0180_Utegym_00048,Stora Sköndals utegym,Stora Sköndals handikappbad,59.249131,18.125449,,,,,Ja,"Idrottsförvaltningen, Stockholms stad",+46 850 827 700,friluft.idrott@​stockholm.se,https://motionera.stockholm/optimized/serviceunitspage/filer/hitta/f289e633-9d74-4703-b913-77c2257f7150.jpeg,,,Utegymmet ligger bakom bassängbadet med Drevviken bara ett stenkast bort,,https://motionera.stockholm/hitta-utegym/utegym/stora-skondals-utegym/,,,,,,,,,,,,,,,,,,,,,,,,,,,,,,
180,0180_Utegym_00049,Stråkets utegym,Stråkets parklek,59.359758,17.831231,,,,,Nej,"Hässelby-Vällingby stadsdelsförvaltning, Stockholms stad",+46 850 804 000,hasselby-vallingby@stockholm.se,https://motionera.stockholm/optimized/serviceunitspage/filer/hitta/b3a9a3c8-8049-4a58-bc34-7f6108ecd8c3.jpeg,,,"Utegymmet hittar du i anslutning till parkleken Stråket, med gångavstånd till Hässelby strands tunnelbanestation",,https://motionera.stockholm/hitta-utegym/utegym/strakets-utegym/,,,,,,Ja,,,Ja,,,,,,,,,,,Ja,,,,,,,,,,
180,0180_Utegym_00050,Sätra idrottsplats utegym,Sätra IP,59.289586,17.928911,,,,,Ja,"Idrottsförvaltningen, Stockholms stad",+46 850 827 700,friluft.idrott@​stockholm.se,https://motionera.stockholm/optimized/serviceunitspage/filer/hitta/9b4cd6ff-8570-4007-8f3c-b6f5355a98e5.jpeg,,,Beläget utanför friidrottshallen,,https://motionera.stockholm/hitta-utegym/utegym/satra-idrottsplats-utegym/,,,,,,Ja,,,Ja,ja,Ja,Ja,,,,,,,,Ja,,,,,Ja,Ja,Ja,,,
180,0180_Utegym_00051,Sätradals utegym,Sätradalsparken,59.286080,17.917117,,,,,Nej,"Skärholmens stadsdelsförvaltning, Stockholms stad",+46 850 824 000,skarholmen@stockholm.se,,,,I Sätradalsparken,,https://motionera.stockholm/hitta-utegym/utegym/satradals-utegym/,,,,,,,,,,,,,,,,,,,,,,,,,,,,,,
180,0180_Utegym_00052,Sätrastrandsbadets utegym,Sätrastrandsbadet,59.286548,17.892867,,,,,Ja,"Skärholmens stadsdelsförvaltning, Stockholms stad",+46 850 824 000,skarholmen@stockholm.se,,,,,,https://motionera.stockholm/hitta-utegym/utegym/satrastrandsbadet-utegym/,,,,,,,,,,,,,,,,,,,,,,,,,,,,,,
180,0180_Utegym_00053,Tantolundens utegym,Tantolunden,59.313633,18.036248,,,,,Nej,"Södermalms stadsdelsförvaltning, Stockholms stad",+46 850 812 000,soder@stockholm.se,,,,,,https://motionera.stockholm/hitta-utegym/utegym/tanto-strandbads-utegym/,,,,,,,,,,,,,,,,,,,,,,,,,,,,,,
180,0180_Utegym_00054,Uteträffen i Tessinparken,Tessinparken,59.344562,18.095565,,,,,Nej,Östermalms stadsdelsförvaltning; Stockholms stad,+46 850 810 000,ostermalm@​stockholm.se,,,,"I Tessinparken, vid bollplanen strax intill parkleken. Närmaste tunnelbanestation är Gärdet, uppgång Brantingsgatan",,https://motionera.stockholm/hitta-utegym/utegym/utetraffen-i-tessinparken/,,,,,,,,,,,,,,,,,,,,,,,,,,,,,,
180,0180_Utegym_00055,Vanadislundens utegym,Vanadislunden,59.347196,18.053150,,,,,Nej,"Norrmalms stadsdelsförvaltning, Stockholms stad",+46 850 809 000,norrmalm@stockholm.se,https://motionera.stockholm/optimized/serviceunitspage/filer/hitta/5d3c6730-dd18-46a9-83f8-ec74362fabbb.jpeg,,,Vanadislundens utegym ligger vid den nedre lekplatsen mot Sveavägen. Närmaste tunnelbanestation är Odenplan. Buss 2 går till hållplats Sveaplan,,https://motionera.stockholm/hitta-utegym/utegym/vanadislundens-utegym/,,,,,,,,,,,,,,,,,,,,,,,,,,,,,,
180,0180_Utegym_00056,Vasaparkens utegym,Vasaparken,59.339308,18.040205,,,,,Nej,"Norrmalms stadsdelsförvaltning, Stockholms stad",+46 850 809 000,norrmalm@stockholm.se,https://motionera.stockholm/optimized/serviceunitspage/filer/hitta/ba51c259-ac5a-4fa2-92af-9a1b9e57921b.jpeg,,,"Utomhusgymmet ligger på höjden i Vasaparkens västra del, mot Torsgatan. Närmaste tunnelbanestation är Sankt Eriksplan",,https://motionera.stockholm/hitta-utegym/utegym/vasaparkens-utegym/,,,,,,,,,,,,,,,,,,,,,,,,,,,,,,
180,0180_Utegym_00057,Vintervikens utegym,Vinterviksparken,59.311741,18.002447,,,,,Ja,"Hägersten-Liljeholmens stadsdelsförvaltning, Stockholms stad",+46 850 822 700,hagersten-liljeholmen@stockholm.se,,,,Nära Blommensbergs bollplan,,https://motionera.stockholm/hitta-utegym/utegym/vintervikens-utegym/,,,,,,,,,,,,,,,,,,,,,,,,,,,,,,
180,0180_Utegym_00058,Vårgårdens utegym,Vårgårdens parklek,59.276537,17.884601,,,,,Nej,"Skärholmens stadsdelsförvaltning, Stockholms stad",+46 850 824 000,skarholmen@stockholm.se,,,,,,https://motionera.stockholm/hitta-utegym/utegym/vargardens-utegym/,,,,,,,,,,,,,,,,,,,,,,,,,,,,,,
180,0180_Utegym_00059,Älvsjöskogens utegym,Älvsjöskogens naturreservat,59.271557,17.995136,,,,,Nej,"Älvsjö stadsdelsförvaltning, Stockholms stad",+46 850 821 000,alvsjo@stockholm.se,https://motionera.stockholm/optimized/serviceunitspage/filer/hitta/8b28a07c-a93e-4930-a102-76281f01b033.jpeg,,,"Utegymmet ligger vid huvudentrén till Älvsjöskogens naturreservat och Älvsjö gamla bollplan. Älvsjö station, cirka 1,4 km promenad. Busshållplats Viktoriavägen, linje 144, cirka 500 m promenad
",,https://motionera.stockholm/hitta-utegym/utegym/alvsjoskogens-utegym/,Ja,,,,,Ja,,,Ja,,,,,,,,,,,,,,,,,,,,,
180,0180_Utegym_00060,Ärvinge utegym,Ärvinge,59.399211,17.933564,,,,,Nej,"Rinkeby-Kista stadsdelsförvaltning, Stockholms stad",+46 850 801 000,rinkeby-kista@stockholm.se,,,,"Ärvinge utegym ligger i gränsen mellan bostäderna och Järvafältet, granne med Ärvinge bollplan och lekparken Trudelutten",,https://motionera.stockholm/hitta-utegym/utegym/arvinge-utegym/,,,,,,,,,,,,,,,,,,,,,,,,,,,,,,
180,0180_Utegym_00061,Ågestas utegym,Ågesta motionsområde,59.222753,18.104855,,,,,Ja,"Idrottsförvaltningen, Stockholms stad",+46 850 827 700,friluft.idrott@​stockholm.se,https://motionera.stockholm/optimized/serviceunitspage/filer/hitta/c7a2a9b5-adfb-410b-9ce8-de4f864a62b2.jpeg,,,,,https://motionera.stockholm/hitta-utegym/utegym/agesta-utegym/,,,,,,,,,,,,,,,,,,,,,,,,,,,,,,
180,0180_Utegym_00062,Årstaskogens utegym,Årstaskogen,59.303095,18.059095,,,,,Nej,"Enskede-Årsta-Vantörs stadsdelsförvaltning, Stockholms stad",+46 850 814 000,eav@stockholm.se,,,,,,https://motionera.stockholm/hitta-utegym/utegym/arstaskogens-utegym/,,,,,,,,,,,,,,,,,,,,,,,,,,,,,,
180,0180_Utegym_00063,Årstavikens utegym,Årstaviken,59.305066,18.040284,,,,,Nej,"Enskede-Årsta-Vantörs stadsdelsförvaltning, Stockholms stad",+46 850 814 000,eav@stockholm.se,,,,Två separata stationer utmed Årstaviken på Årsta sidan. En nedanför Årsta IP och en nedanför Årstagårdens bollplan. Det är drygt en kilometer mellan de två stationerna,,https://motionera.stockholm/hitta-utegym/utegym/arstavikens-utegym/,,,,,,Ja,,,Ja,Ja,,,Ja,,,,,,,,,,,,Ja,Ja,Ja,,,
180,0180_Utegym_00064,Östbergas utegym,Lisebergs bollplan,59.286310,18.032016,,,,,Ja,"Idrottsförvaltningen, Stockholms stad",+46 850 827 700,eav@stockholm.se,https://motionera.stockholm/optimized/serviceunitspage/filer/hitta/9249cdbd-c2a1-4d24-a38c-b6d4c6f2b7cc.jpeg,,,,,https://motionera.stockholm/hitta-utegym/utegym/ostberga-utegym/,,,,,,Ja,,,Ja,Ja,Ja,Ja,,,,,,,,Ja,,,,,Ja,Ja,Ja,,,
0126,0126_utegym_00001,Naturgym vid Tranparken,Tranparken,59.266269,17.965402,6573462,669015,6572331,148026,Nej,Huddinge kommun,+46 853 53 00 00,huddinge@huddinge.se,,,,"Tranvägen 14, Segeltorp",,https://www.huddinge.se/fritid-natur-och-kultur/motion-och-idrott/utegym/,Ja,,141 72,,,,,,,,,,,,,,,,,,,,,,,,,,,
0126,0126_utegym_00002,Utegym vid Källbrinks IP ,Källbrinks IP,59.248545,17.950673,6571453,668264,6570357,147185,,Huddinge kommun,+46 853 53 00 00,huddinge@huddinge.se,,,,"Gamla Stockholmsvägen 91, Huddinge",,https://www.huddinge.se/fritid-natur-och-kultur/motion-och-idrott/utegym/,,,141 32,,,,,,,,,,,,,,,,,,,,,,,,,,,
0126,0126_utegym_00003,Utegym i Skeppsmyreparken,Skeppsmyreparken,59.248771,17.996297,6571594,670863,6570381,149788,,Huddinge kommun,+46 853 53 00 00,huddinge@huddinge.se,,,,"Stationsvägen 16-18, Huddinge",,https://www.huddinge.se/fritid-natur-och-kultur/motion-och-idrott/utegym/,Ja,,141 40,,,,,,,,,,,,,,,,,,,,,,,,,,,
0126,0126_utegym_00004,Utegym i Rådsparken,Rådsparken,59.239938,17.987308,6570588,670395,6569397,149275,,Huddinge kommun,+46 853 53 00 00,huddinge@huddinge.se,,,,"Rådsvägen 17, Huddinge",,https://www.huddinge.se/fritid-natur-och-kultur/motion-och-idrott/utegym/,,,141 85,,,,,,,,,,,,,,,,,,,,,,,,,,,
0126,0126_utegym_00005,Hinderbana och utegym i Nytorps mosse,Nytorps mosse,59.225109,18.145586,6569353,679497,6567754,158312,Ja,Huddinge kommun,+46 853 53 00 00,huddinge@huddinge.se,,,,"Kvartettvägen 8, Trångsund",,https://www.huddinge.se/fritid-natur-och-kultur/motion-och-idrott/utegym/,Ja,Begränsat,142 63,,,,,,,,,,,,,,,,,,,,,,,,,,,
0126,0126_utegym_00006,Utegym i Sjöängsparken,Sjöängsparken,59.234144,18.157318,6570390,680118,6568762,158980,Ja,Huddinge kommun,+46 853 53 00 00,huddinge@huddinge.se,,,,"Sjöängsvägen 15, Trångsund",,https://www.huddinge.se/fritid-natur-och-kultur/motion-och-idrott/utegym/,Ja,Begränsat,142 64,,,,,,,,,,,,,,,,,,,,,,,,,,,
0126,0126_utegym_00007,Naturgym vid Visättra sportcenter,Visättra,59.215498,17.961454,6567802,669042,6566675,147798,Ja,Huddinge kommun,+46 853 53 00 00,huddinge@huddinge.se,,,,"Kvarnängsvägen 12, Visättra",,https://www.huddinge.se/fritid-natur-och-kultur/motion-och-idrott/utegym/,Ja,Begränsat,141 49,,,,,,,,,,,,,,,,,,,,,,,,,,,
0126,0126_utegym_00008,Utegym vid Gladö lekplats,Gladö lekplats,59.192496,17.973302,6565273,669832,6564112,148474,Ja,Huddinge kommun,+46 853 53 00 00,huddinge@huddinge.se,,,,"Nyboviksvägen 23, Huddinge",,https://www.huddinge.se/fritid-natur-och-kultur/motion-och-idrott/utegym/,,Begränsat,141 91,,,,,,,,,,,,,,,,,,,,,,,,,,,
0126,0126_utegym_00009,Ågesta friluftsområde,Ågesta,59.223755,18.104274,6569092,677147,6567599,155954,,Stockholm stad,,,,,,"Bonäsvägen, Farsta",,https://www.huddinge.se/fritid-natur-och-kultur/motion-och-idrott/utegym/,,,123 52,,,,,,,,,,,,,,,,,,,,,,,,,,,
0183,0183_Utegym_00001,Lötsjöns utegym,Golfängarna,,,,,,,Nej,"Sundbybergs stad, Samhällsbyggnads- och serviceförvaltningen",+46 8 706 65 00,servicecenter@sundbyberg.se,,,,Vid slutet av Vackra vägen mot Lötsjön,,,Ja,Begränsat,172 40,2019,,,,,,,,,,,,,,,,,,,,,,,,,,
0183,0183_Utegym_00002,Duvboparkens utegym,Duvboparken,,,,,,,Nej,"Sundbybergs stad, Samhällsbyggnads- och serviceförvaltningen",+46 8 706 65 00,servicecenter@sundbyberg.se,,,,"Korsningen Sveavägen/Långlötsvägen. Närmsta hållplats är ""Lötsjön"" där buss 504 och 506 stannar.",Ligger intill en lekplats.,,Ja,Nej,172 76,2014,,,,,,,,,,,,,,,,,,,,,,,,,,
0183,0183_Utegym_00003,Tuvanparkens utegym,Tuvanparken,,,,,,,Nej,"Sundbybergs stad, Samhällsbyggnads- och serviceförvaltningen",+46 8 706 65 00,servicecenter@sundbyberg.se,,,,"I Tuvanparken, närmsta hållplats är ""Humblegatan"" där buss 512 stannar.",Finns även en parkour-del.,,Ja,Nej,172 38,2014,,,,,,,,,,,,,,,,,,,,,,,,,,
0183,0183_Utegym_00004,Rissnes utegym,Rissne IP,,,,,,,Ja,"Sundbybergs stad, Kultur- och fritidsförvaltningen",+46 8 706 83 81,,,,,"Vid Rissne IP, ca 500 meter västerut från hållplats ""Rissne"" som nås med tunnelbanan linje 10 samt buss 118, 155, 157, 504 och 512.",,,Ja,Nej,174 59,2017-09-01,,,,,,,,,,,,,,,,,,,,,,,,,,
0183,0183_Utegym_00005,Ursviks utegym,Ursviks motionsområde,,,,,,,Ja,"Sundbybergs stad, Kultur- och fritidsförvaltningen",+46 8 706 83 81,,,,,"Vid löpspårens startområde i Ursvik, närmsta hållplats är ""Ursviks motionsgård"" där buss 504 stannar.",,,Ja,Nej,174 46,2000,,,,,,,,,,,,,,,,,,,,,,,,,,
0188,0001,Socitetsparkens utegym,"Badstuvägen 9, NORRTÄLJE",,,,,,,Ja,Norrtälje kommun,0176 710 00,kontaktcenter@norrtalje.se,www.norrtalje.se/info/kultur-och-fritid/idrott-motion-friluftsliv/utegym/utegym-norrtalje/,,,,Utegymmet ligger i Societetsparken och består av en rad olika träningsredskap som lockar till aktivitet. Gymmet är mer inriktad på rörlighet än styrka. På marken ligger mjuka gummiplattor. Utegymmet är belyst.,,,,,,,,,,,,,,,,,,,,,,,,,,,,,,,
0188,0002,Hallstaviks utegym,"Ekvägen 20, HALLSTAVIK",,,,,,,Nej,Norrtälje kommun,0176 710 00,kontaktcenter@norrtalje.se,www.norrtalje.se/info/kultur-och-fritid/idrott-motion-friluftsliv/utegym/utegym-hallstavik/,,,,"Gymmet består av robusta träprodukter och har en mängd olika funktioner. Några av de öveningar du kan utföra är stocklyft, armhägningsstång, armgång, stubbar för upphopp, sit-up, marklyft och rygglyft. Utegymmet är tillgänglighetsanpassat.",,,,,,,,,,,,,,,,,,,,,,,,,,,,,,,
0188,0003,Rimbos utegym,"Långsjöstigen 7, RIMBO",,,,,,,Ja,Norrtälje kommun,0176 710 00,kontaktcenter@norrtalje.se,www.norrtalje.se/info/kultur-och-fritid/idrott-motion-friluftsliv/utegym/utegym-rimbo/,,,,"Gymmet består av robusta träprodukter och har en mängd olika funktioner som ger dig möjlighet att träna hela kroppen. Här kan du utföra stocklyft, armhävningsstång, armgång, stubbar för upphopp, sit-up, marklyft och rygglyft.",,,,,,,,,,,,,,,,,,,,,,,,,,,,,,,
0188,0004,Arkadiens hinderbana,"Arkadien, RIMBO",,,,,,,Ja,Norrtälje kommun,0176 710 00,kontaktcenter@norrtalje.se,www.norrtalje.se/info/kultur-och-fritid/idrott-motion-friluftsliv/utegym/utegym-rimbo/,,,,"Träna kondition och styrka genom klättring, spring och hopp.",,,,,,,,,,,,,,,,,,,,,,,,,,,,,,,
0115,0115_Utegym_00001,Kårsta utegym,Kårsta,59.6566844665686,18.2732946229574,6617726,684416,6615856,165408,Ja,Vallentuna kommun,+46 858 78 50 00,kommun@vallentuna.se,,,,,,,,,,,,,,,,,,,,,,,,,,,,,,,,,,,,
0115,0115_Utegym_00002,Össeby Idrottsplats utegym,Össeby,59.5597861222794,18.2164547111994,6606787,681738,6605049,162238,Ja,Vallentuna kommun,+46 858 78 50 00,kommun@vallentuna.se,,,,,,,,,,,,,,,,,,,,,,,,,,,,,,,,,,,,
0115,0115_Utegym_00003,Vallentuna Idrottsplats utegym,Haga,59.5335644490177,18.0965247437696,6603547,675101,6602112,155462,Ja,Vallentuna kommun,+46 858 78 50 00,kommun@vallentuna.se,,,,,,,,,,,,,,,,,,,,,,,,,,,,,,,,,,,,
0115,0115_Utegym_00004,Lindholmen utegym,Lindholmen,59.5892886653496,18.1052301925141,6609771,675303,6608321,155944,Ja,Vallentuna kommun,+46 858 78 50 00,kommun@vallentuna.se,,,,,,,,,,,,,,,,,,,,,,,,,,,,,,,,,,,,
